{
  "type": "FeatureCollection",
  "features": [
    {
      "type": "Feature",
      "geometry": {
        "type": "Point",
        "coordinates":  [12.6142,46.7099]
      },
      "properties": {
        "name": "Obertilliach",
        "code": "Loco",
          "distance": "39",
        "length": "",
        "elevation": {
          "min": "-10.000",
          "max": "+10.000"
        },
        "difficulty": "Moderate",
        "gpx": "Obertilliach.gpx",
        "points": [
          {
            "name": "Obertilliach",
            "coordinates": [12.6142,46.7099]
          },
          {
            "name": "Kartitsch",
            "coordinates": [12.49859,46.72507]
          },
          {
            "name": "Untertilliach",
            "coordinates": [ 12.6775, 46.7037]
          }
        ]
      }
     },
      
    {
      "type": "Feature",
      "geometry": {
        "type": "Point",
        "coordinates":  [ 13.9609,46.7756]
      },
      "properties": {
        "name": "Gnesau",
        "code": "Loco",
        "distance": "40km",
        "length": "",
        "elevation": {
          "min": "-10.000",
          "max": "+10.000"
        },
        "difficulty": "Moderate",
        "gpx": "Gnesau.gpx",
        "points": [
          {
            "name": "Gnesau",
            "coordinates": [ 13.9609,46.7756]
          }
        ]
      }
    },
    {
      "type": "Feature",
      "geometry": {
        "type": "Point",
        "coordinates":  [ 13.7474,46.7762]
      },
      "properties": {
        "name": "Nockalmstraße",
        "code": "Loco",
        "distance": "",
        "length": "",
        "elevation": {
          "min": "-10.000",
          "max": "+10.000"
        },
        "difficulty": "Moderate",
        "gpx": "Nockalm.gpx",
        "points": [
          {
            "name": "Feld am See",
            "coordinates": [ 13.7474,46.7762]
          },
          {
            "name": "Bad Kleinkirchheim",
            "coordinates": [ 13.79823, 46.81465]
          },
          {
            "name": "Ebene Reichenau",
            "coordinates": [ 13.8922, 46.8547]
          }, 
          {
            "name": "Innerkrems",
            "coordinates": [ 13.7266, 46.96822]
          }, 
          {
            "name": "Gmünd",
            "coordinates": [ 13.5369, 46.9062]
          },
          {
            "name": "Rosennock",
            "coordinates": [ 13.7123, 46.8768]
          }
        ]
      }
    },
    {
      "type": "Feature",
      "geometry": {
        "type": "Point",
        "coordinates":  [ 15.8638,47.6945]
      },
      "properties": {
        "name": "Mürztal",
        "code": "Loco",
        "distance": "",
        "length": "",
        "elevation": {
          "min": "-10.000",
          "max": "+10.000"
        },
        "difficulty": "Moderate",
        "gpx": "Muerztal.gpx",
        "points": [
          {
            "name": "Peyerbach",
            "coordinates": [ 15.8638,47.6945]
          },
          {
            "name": "Sankt Agyd am Neuwalde",
            "coordinates": [ 15.5652, 47.8536]
          },, 
          {
            "name": "Rohr im Gebirge",
            "coordinates": [ 15.7343, 47.8955]
          }, 
          {
            "name": "Mödling",
            "coordinates": [ 16.28325, 48.08545]
          }
        ]
      }
    }
      
    
  ]
}
