{
  "type": "FeatureCollection",
  "features": [
    {
      "type": "Feature",
      "geometry": {
        "type": "Point",
        "coordinates":  [12.6142,46.7099]
      },
      "properties": {
        "name": "Obertilliach",
        "code": "Loco",
          "distance": "39",
        "length": "",
        "elevation": {
          "min": "-10.000",
          "max": "+10.000"
        },
        "difficulty": "Moderate",
        "gpx": "Obertilliach.gpx",
        "points": [
          {
            "name": "Obertilliach",
            "coordinates": [12.6142,46.7099]
          },
          {
            "name": "Kartitsch",
            "coordinates": [12.49859,46.72507]
          },
          {
            "name": "Untertilliach",
            "coordinates": [ 12.6775, 46.7037]
          }
        ]
      }
     },
      {
      "type": "Feature",
      "geometry": {
        "type": "Point",
        "coordinates":  [13.61934,46.61465]
      },
      "properties": {
        "name": "Grünnock Transgresión",
        "code": "Loco",
        "distance": " ",
        "length": "",
        "elevation": {
          "min": "-10.000",
          "max": "+10.000"
        },
        "difficulty": "Moderate",
        "gpx": "GruennockUeberschreitung.gpx",
        "points": [
          {
            "name": "Dobrač",
            "coordinates": [13.67038,46.60365]
          },
          {
            "name": "Grünnock",
            "coordinates": [13.66119,46.60944]
          },
          {
            "name": "Kilzerberg",
            "coordinates": [ 13.63493, 46.62044]
          }
        ]
      }
    },
    {
      "type": "Feature",
      "geometry": {
        "type": "Point",
        "coordinates":  [13.61934,46.61465]
      },
      "properties": {
        "name": "Kilzerberg",
        "code": "Loco",
        "distance": " ",
        "length": "",
        "elevation": {
          "min": "-10.000",
          "max": "+10.000"
        },
        "difficulty": "Moderate",
        "gpx": "Kilzerberg.gpx",
        "points": [
          {
            "name": "Dobrač",
            "coordinates": [13.67038,46.60365]
          },
          {
            "name": "Grünnock",
            "coordinates": [13.66119,46.60944]
          },
          {
            "name": "Kilzerberg",
            "coordinates": [ 13.63493, 46.62044]
          }
        ]
      }
    }
      
    
  ]
}
